City,Cloudiness,Country,Date,Humidity,Lat,Lng,Max Temp,Wind Speed
Rikitea,100,PF,1578027822,79,-23.12,-134.97,299.39,1.83
Fare,100,PF,1578028265,80,-16.7,-151.02,300.91,3.36
Tuatapere,60,NZ,1578028265,87,-46.13,167.69,284.82,6.71
Carnarvon,0,ZA,1578027901,50,-30.97,22.13,294.87,4.21
Hit,0,IQ,1578027839,48,33.64,42.83,285.23,2.88
Yeppoon,0,AU,1578027941,35,-23.13,150.74,305.15,5.7
Saskylakh,99,RU,1578027845,96,71.97,114.09,246.66,4.07
Ushuaia,4,AR,1578027833,49,-54.81,-68.31,282.15,7.7
Ula,75,TR,1578028266,57,37.1,28.42,283.15,3.6
Port Alfred,70,ZA,1578027825,95,-33.59,26.89,294.26,6.0
Butaritari,100,KI,1578027821,85,3.07,172.79,300.02,5.2
Hermanus,2,ZA,1578027828,95,-34.42,19.24,291.48,4.22
Yerbogachen,98,RU,1578028267,94,61.28,108.01,260.46,3.18
Flin Flon,93,CA,1578027726,96,54.77,-101.88,260.96,1.96
Longyearbyen,90,NO,1578027841,71,78.22,15.63,258.15,7.7
Shieli,98,KZ,1578028268,80,44.18,66.74,276.77,1.52
Atuona,3,PF,1578027827,78,-9.8,-139.03,300.28,7.07
Codrington,0,AU,1578027842,45,-28.95,153.24,308.15,7.7
Soltsy,10,RU,1578028269,86,58.12,30.32,273.84,5.1
Punta Arenas,83,CL,1578027824,46,-53.16,-70.91,283.15,4.1
Thompson,90,CA,1578027868,84,55.74,-97.86,260.15,1.38
Mar del Plata,1,AR,1578027829,40,-46.43,-67.52,296.22,15.3
Castro,1,CL,1578027824,87,-42.48,-73.76,286.15,2.1
Poum,0,MK,1578028270,73,41.28,20.71,266.15,1.5
Talnakh,75,RU,1578027842,84,69.49,88.39,257.15,11.0
Isangel,75,VU,1578027934,74,-19.55,169.27,300.15,6.7
Pevek,0,RU,1578027862,64,69.7,170.27,254.9,5.08
Narsaq,100,GL,1578027849,62,60.91,-46.05,268.15,4.14
Barrow,61,AR,1578027829,73,-38.31,-60.23,289.24,4.32
Grand Gaube,75,MU,1578027886,94,-20.01,57.66,299.15,3.03
Eureka,75,US,1578027931,93,40.8,-124.16,280.15,1.5
Lucea,20,JM,1578028176,74,18.44,-78.17,299.15,1.5
Mataura,92,NZ,1578027824,88,-46.19,168.86,284.26,5.36
Vila,100,IT,1578028272,100,45.18,8.4,277.04,3.6
Khatanga,100,RU,1578027831,99,71.98,102.47,252.53,1.16
Albany,90,US,1578027571,48,42.65,-73.75,279.15,4.6
Carballo,75,ES,1578028272,87,43.21,-8.69,285.93,5.1
Kavaratti,40,IN,1578027868,70,10.57,72.64,303.15,2.1
Saint-Philippe,75,CA,1578027832,80,45.36,-73.48,277.04,3.6
Padang,87,ID,1578027899,66,-0.92,100.36,300.95,0.95
Cape Town,20,ZA,1578027982,88,-33.93,18.42,292.59,6.2
New Norfolk,75,AU,1578027850,56,-42.78,147.06,298.71,5.1
Chuy,2,UY,1578027900,86,-33.69,-53.46,291.8,3.3
Praia,90,BR,1578028274,94,-20.25,-43.81,294.15,0.82
Harindanga,75,IN,1578028274,93,22.04,88.32,289.15,4.1
Esperance,40,AU,1578027830,48,-33.86,121.89,292.15,10.3
Onega,100,RU,1578028274,92,63.91,38.09,274.48,4.36
Nanortalik,100,GL,1578027858,47,60.14,-45.24,274.31,5.9
Pisco,90,PE,1578027884,83,-13.71,-76.2,294.15,6.2
Hobart,75,AU,1578027606,56,-42.88,147.33,298.71,5.1
Otradnoye,90,RU,1578028275,80,59.77,30.8,277.15,4.0
Itaquyry,45,PY,1578028275,80,-24.93,-55.22,295.07,2.29
Vaini,0,IN,1578027822,73,15.34,74.49,294.15,3.1
Yulara,19,AU,1578027827,58,-25.24,130.99,301.15,9.8
Arraial do Cabo,100,BR,1578027835,83,-22.97,-42.02,297.67,1.43
Saint-Tite,90,CA,1578028276,100,46.73,-72.56,272.15,1.5
Kapaa,90,US,1578027849,88,22.08,-159.32,297.15,8.2
Husavik,9,CA,1578027891,91,50.56,-96.99,265.93,0.89
Saint-Ambroise,90,CA,1578027853,100,48.56,-71.32,269.26,5.7
Dikson,97,RU,1578027827,91,73.51,80.55,257.27,9.52
Dunedin,21,NZ,1578027903,77,-45.87,170.5,284.96,15.12
Whitehorse,90,CA,1578027897,92,60.72,-135.06,261.15,1.0
Ilulissat,100,GL,1578027930,72,69.22,-51.1,263.15,5.1
Takoradi,67,GH,1578027896,59,4.89,-1.75,296.88,3.84
Hasaki,20,JP,1578027855,50,35.73,140.83,287.59,2.1
Rudnya,81,RU,1578028279,97,50.8,44.56,267.89,3.07
Chumphon,40,TH,1578028279,55,10.5,99.18,305.15,4.1
Ust-Tsilma,100,RU,1578028279,97,65.44,52.15,272.61,4.61
Faanui,100,PF,1578027876,78,-16.48,-151.75,300.78,4.09
Bethel,1,US,1578027942,75,60.79,-161.76,248.15,5.7
Turayf,47,SA,1578028280,80,31.68,38.65,275.15,1.0
Victoria,75,BN,1578027676,70,5.28,115.24,303.15,2.1
Nioro,97,GM,1578028280,14,13.79,-15.05,292.13,4.42
Grindavik,75,IS,1578027874,63,63.84,-22.43,270.15,9.8
Saint-Francois,100,FR,1578028281,100,46.42,3.91,275.37,1.0
Hualmay,77,PE,1578028281,85,-11.1,-77.61,292.4,1.43
Namatanai,64,PG,1578028281,69,-3.66,152.44,302.75,2.34
Buraydah,2,SA,1578027928,76,26.33,43.97,282.15,1.5
Angoche,100,MZ,1578027921,84,-16.23,39.91,299.87,4.53
Avarua,86,CK,1578027807,74,-21.21,-159.78,299.15,1.5
Bluff,11,AU,1578027837,22,-23.58,149.07,308.6,8.96
Saint-Augustin,90,CA,1578028031,92,45.63,-73.98,276.48,1.5
Minab,40,IR,1578028282,68,27.15,57.07,294.15,3.1
Sao Filipe,100,CV,1578027856,75,14.9,-24.5,294.32,6.4
Samtredia,74,GE,1578028283,72,42.16,42.35,274.15,1.5
Sao Joao da Barra,100,BR,1578027899,93,-21.64,-41.05,296.12,2.43
Hambantota,40,LK,1578027932,89,6.12,81.12,302.15,5.7
Minsk,3,BY,1578028208,86,53.9,27.56,271.15,2.0
Lebu,75,ET,1578027834,76,8.96,38.73,286.15,1.0
Kokino,0,MK,1578028284,85,42.26,21.95,266.15,1.34
Georgetown,20,GY,1578027641,88,6.8,-58.16,296.15,1.0
Sioux Lookout,90,CA,1578028284,92,50.1,-91.92,263.15,4.6
Coquimbo,0,CL,1578027869,87,-29.95,-71.34,287.15,1.0
Ambon,75,FR,1578027928,93,47.55,-2.56,285.15,3.6
Kaitangata,76,NZ,1578027847,70,-46.28,169.85,284.82,10.73
Venado Tuerto,0,AR,1578028285,90,-33.75,-61.97,292.59,3.39
Constitucion,0,MX,1578027864,70,23.99,-104.67,278.71,4.02
Tual,100,ID,1578028119,90,-5.67,132.75,299.59,7.84
Bandarbeyla,32,SO,1578027875,75,9.49,50.81,298.91,7.16
Yeniseysk,100,RU,1578028286,90,58.45,92.17,270.95,5.19
Yellowknife,90,CA,1578027910,84,62.45,-114.38,259.15,2.1
Nuoro,15,IT,1578028128,87,40.32,9.33,281.15,4.1
Nikolskoye,90,RU,1578027830,80,59.7,30.79,277.15,4.0
Port Elizabeth,40,US,1578027839,61,39.31,-74.98,284.82,1.5
Ponta Delgada,20,PT,1578028287,66,37.73,-25.67,286.15,2.6
Tunceli,90,TR,1578028287,93,39.11,39.55,275.15,2.1
Hilo,75,US,1578027855,73,19.71,-155.08,297.15,2.1
Kropotkin,100,RU,1578028288,95,45.43,40.58,273.15,2.77
Jamestown,2,AU,1578027845,5,-33.21,138.6,311.96,5.95
Bredasdorp,9,ZA,1578027876,87,-34.53,20.04,289.26,0.5
Mehamn,99,NO,1578028148,80,71.03,27.85,276.15,9.3
Socorro,75,US,1578028289,80,31.65,-106.3,277.15,1.5
Pasni,41,PK,1578027868,42,25.26,63.48,293.95,1.18
Katsuura,40,JP,1578027883,47,33.93,134.5,288.71,3.6
Sidney,90,US,1578028289,92,47.72,-104.16,272.15,7.2
Hamilton,90,CA,1578027650,75,43.26,-79.87,281.48,5.1
Adrar,25,DZ,1578027841,48,27.87,-0.29,277.15,6.7
Gushikawa,20,JP,1578028290,56,26.35,127.87,295.15,3.6
Busselton,37,AU,1578027828,21,-33.64,115.35,296.48,7.99
Lompoc,1,US,1578027821,61,34.64,-120.46,286.15,2.1
Ponta do Sol,99,BR,1578027847,95,-20.63,-46.0,291.76,0.99
Kamennogorsk,90,RU,1578028291,86,60.95,29.13,277.15,6.7
Quatre Cocos,75,MU,1578028291,94,-20.21,57.76,299.15,2.85
Tasiilaq,0,GL,1578027785,40,65.61,-37.64,264.15,12.9
Iluppur,40,IN,1578028292,74,10.51,78.62,301.15,1.5
Coolum Beach,0,AU,1578028292,61,-26.53,153.09,301.48,0.89
Bambous Virieux,75,MU,1578027906,94,-20.34,57.76,299.15,5.11
Myitkyina,98,MM,1578028292,49,25.38,97.4,296.75,1.0
Pontes e Lacerda,100,BR,1578028292,99,-15.23,-59.33,295.31,1.46
Ati,3,TD,1578028293,33,13.21,18.34,286.56,5.92
Chapais,90,CA,1578027903,92,49.78,-74.86,267.15,3.1
Camacha,20,PT,1578028293,72,33.08,-16.33,290.15,3.6
Aklavik,90,CA,1578027879,69,68.22,-135.01,248.15,3.1
Russell,1,US,1578028293,92,38.9,-98.86,274.15,3.1
Jalu,0,LY,1578027840,85,29.03,21.55,280.03,2.9
Gazli,100,UZ,1578028294,50,40.13,63.45,281.49,2.62
Tuktoyaktuk,20,CA,1578027839,75,69.44,-133.03,246.15,7.2
Cidreira,80,BR,1578027865,77,-30.17,-50.22,295.87,10.21
Puro,76,PH,1578028295,86,13.13,123.76,298.85,7.2
Fjerritslev,100,DK,1578028295,92,57.08,9.27,281.48,10.12
Praia da Vitoria,20,PT,1578027902,100,38.73,-27.07,283.15,5.16
Mantua,90,IT,1578028295,100,45.16,10.79,279.26,1.0
Carbonia,0,IT,1578028296,100,39.17,8.53,276.15,3.1
Matagami,0,NG,1578028296,26,9.67,8.4,287.33,2.8
Abha,0,SA,1578028296,47,18.22,42.5,288.15,1.03
Coahuayana,100,MX,1578028296,60,18.62,-100.35,295.55,0.68
Chokurdakh,24,RU,1578027888,93,70.62,147.9,243.38,0.71
Otautau,87,NZ,1578028297,87,-46.14,168.0,284.82,6.71
Gizo,40,IL,1578028297,62,31.8,34.94,285.15,5.1
Marsaxlokk,0,MT,1578028297,87,35.84,14.54,284.26,3.6
Provideniya,0,RU,1578027877,72,64.42,-173.23,249.0,5.01
Ust-Nera,100,RU,1578028297,98,64.57,143.24,251.83,2.62
Namtsy,37,RU,1578028298,66,62.72,129.66,238.15,1.0
Artesia,90,US,1578028156,100,32.84,-104.4,277.59,6.7
Bani Walid,49,LY,1578028298,83,31.76,14.0,282.18,6.8
Saint George,20,GR,1578027867,85,39.45,22.34,274.82,1.5
Guerrero Negro,1,MX,1578028436,47,27.97,-114.04,288.6,3.56
Oranjestad,20,AW,1578028299,74,12.52,-70.03,300.15,6.7
Tandalti,11,SD,1578028299,20,13.01,31.87,294.38,6.82
Mahebourg,75,MU,1578028437,94,-20.41,57.7,299.15,4.1
Dicabisagan,94,PH,1578028299,80,17.08,122.42,297.21,5.76
Gra Liyia,75,GR,1578028299,71,35.02,25.68,285.15,10.8
Cherskiy,46,RU,1578028152,69,68.75,161.3,255.44,5.44
Rorvik,98,NO,1578028300,82,64.86,11.24,277.04,2.24
Kihei,75,US,1578028300,78,20.76,-156.45,297.15,7.2
Caravelas,100,BR,1578027880,86,-17.73,-39.27,297.55,4.85
Patacamaya,83,BO,1578028300,90,-17.23,-67.92,280.21,2.38
Puerto Ayora,35,EC,1578028438,81,-0.74,-90.35,296.48,2.24
Pangnirtung,20,CA,1578028301,91,66.15,-65.72,254.15,0.61
Gravelbourg,54,CA,1578028301,79,49.88,-106.56,265.17,6.83
Cuauhtemoc,0,MX,1578028301,82,28.72,-111.63,285.37,0.89
East London,90,ZA,1578027843,100,-33.02,27.91,295.15,4.6
Lorengau,83,PG,1578028141,71,-2.02,147.27,302.72,2.73
Hurricane,1,US,1578028302,64,37.18,-113.29,277.59,2.1
Ribeira Grande,0,PT,1578027841,76,38.52,-28.7,285.99,5.39
Taga,100,ID,1578028302,85,-8.61,120.44,298.13,1.34
Zhigansk,0,RU,1578027912,93,66.77,123.37,236.42,4.16
Fresnillo,5,MX,1578028303,64,23.17,-102.87,279.15,7.7
Galle,61,GN,1578027897,29,10.08,-12.83,291.63,1.51
Verkhnevilyuysk,100,RU,1578028303,98,63.45,120.31,250.03,1.77
Port-Gentil,98,GA,1578027873,73,-0.72,8.78,301.56,3.54
Tiksi,5,RU,1578027851,68,71.64,128.87,243.65,2.3
Benguela,100,AO,1578028304,85,-12.58,13.4,298.27,1.2
Alice Springs,48,AU,1578027867,12,-23.7,133.88,314.15,3.1
Meulaboh,29,ID,1578027888,74,4.14,96.13,300.92,1.63
Hithadhoo,53,MV,1578028442,69,-0.6,73.08,301.86,3.53
Maldonado,20,UY,1578027854,93,-34.91,-54.96,290.15,2.1
Leua,100,AO,1578028305,91,-11.65,20.45,292.99,4.16
Talakan,31,RU,1578028305,92,50.29,130.28,249.49,2.16
Mehran,40,IR,1578028305,60,33.12,46.17,278.15,2.1
Atherton,75,AU,1578027901,66,-17.27,145.48,306.48,2.6
Mount Gambier,46,AU,1578027851,9,-37.83,140.78,310.15,7.2
Waipawa,0,NZ,1578028035,35,-39.94,176.59,294.56,5.18
Qaanaaq,3,GL,1578028350,66,77.48,-69.36,234.45,1.12
Torbay,90,CA,1578027846,86,47.66,-52.73,272.59,9.3
Zhangye,0,CN,1578028307,18,38.94,100.46,278.94,4.47
Vardo,90,US,1578028307,46,39.62,-77.74,284.26,2.6
Grobina,27,LV,1578028307,86,56.54,21.17,278.15,10.3
Urdoma,100,RU,1578028308,98,61.74,48.55,274.91,5.02
Nara,40,JP,1578028066,47,34.68,135.8,287.04,6.7
Henties Bay,81,NA,1578028309,92,-22.12,14.28,289.26,1.34
San Patricio,5,PY,1578028446,67,-26.98,-56.83,294.94,3.22
Santa Ana,0,MX,1578028309,42,30.54,-111.12,287.04,3.58
Carndonagh,100,IE,1578028309,75,55.25,-7.27,278.73,3.05
Luderitz,0,NA,1578027916,80,-26.65,15.16,290.54,12.64
Ouricuri,100,BR,1578028310,84,-7.88,-40.08,296.93,0.49
Big Spring,75,US,1578028310,64,32.25,-101.48,283.15,3.6
Kurilsk,68,RU,1578028310,79,45.23,147.88,268.8,3.44
Kavieng,2,PG,1578027854,66,-2.57,150.8,302.8,1.26
Svetlogorsk,90,RU,1578027887,78,53.14,59.15,265.15,2.0
Airai,79,TL,1578027852,82,-8.93,125.41,297.69,1.37
Souillac,90,FR,1578027850,93,45.6,-0.6,281.15,6.2
Ebetsu,75,JP,1578028311,67,43.11,141.54,273.15,3.1
Hastings,27,NZ,1578028312,83,-39.64,176.84,290.79,8.67
Mosquera,75,CO,1578028312,82,4.71,-74.23,288.15,2.6
Kruisfontein,5,ZA,1578028312,74,-34.0,24.73,295.05,2.25
Plattsburgh,90,US,1578028312,69,44.69,-73.46,278.15,3.1
Karibib,47,NA,1578028312,46,-21.94,15.86,297.88,1.82
Ballina,90,IE,1578028450,86,54.11,-9.15,280.37,0.89
Alta Floresta,100,BR,1578028313,99,-9.87,-56.08,294.72,1.25
Opuwo,100,NA,1578028450,73,-18.06,13.84,294.75,5.2
Sembabule,99,UG,1578028451,70,-0.08,31.46,295.26,0.79
Katherine,75,AU,1578028313,35,-14.47,132.26,310.15,2.6
Peterhead,21,AU,1578028314,4,-34.83,138.5,314.82,7.7
Kutum,8,SD,1578028314,41,14.2,24.66,283.09,3.68
Passo de Camaragibe,100,BR,1578028314,94,-9.24,-35.49,297.15,1.0
Xuddur,71,SO,1578027923,55,4.12,43.89,299.67,8.26
Chinhoyi,100,ZW,1578028315,66,-17.36,30.19,297.47,3.65
Erdenet,0,MN,1578028452,77,49.03,104.04,262.17,1.54
Norman Wells,90,CA,1578027874,83,65.28,-126.83,252.15,3.6
Bafia,40,CM,1578028315,75,4.74,11.22,293.16,0.87
Karoi,100,ZW,1578028316,82,-16.82,29.68,295.19,4.18
Clyde River,90,CA,1578027786,75,70.47,-68.59,248.15,7.2
Portland,90,US,1578028107,74,43.66,-70.25,278.71,9.44
Cruzilia,99,BR,1578028316,98,-21.84,-44.81,290.01,0.78
Miresu Mare,90,RO,1578028317,100,47.5,23.33,271.15,1.0
Merritt,90,CA,1578028317,96,50.11,-120.79,273.15,1.5
Vostok,100,RU,1578028051,94,46.45,135.83,253.88,4.62
Port Hardy,90,CA,1578027899,93,50.7,-127.42,276.15,11.8
Pericos,40,MX,1578028455,87,25.08,-107.7,289.15,1.02
Sapele,0,NG,1578028455,30,5.89,5.68,292.65,2.26
Lovozero,100,RU,1578028455,89,68.01,35.02,274.39,2.41
San Buenaventura,21,MX,1578028456,62,27.06,-101.55,286.52,4.25
Iroquois Falls,90,CA,1578028456,99,48.76,-80.69,273.15,2.6
Evensk,100,RU,1578027901,74,61.92,159.24,263.06,5.72
Nampula,75,MZ,1578028434,88,-15.12,39.26,297.15,2.6
Luba,100,PH,1578028457,55,17.32,120.7,300.92,2.27
Tacuarembo,0,UY,1578028244,95,-31.73,-55.98,288.1,2.54
Leningradskiy,0,RU,1578027873,77,69.38,178.42,250.06,6.96
Santiago,93,PH,1578027784,73,16.69,121.54,297.71,2.13
Te Anau,98,NZ,1578028458,75,-45.41,167.72,282.58,5.36
Pecos,40,US,1578028458,65,31.42,-103.49,281.48,4.6
Kasempa,100,ZM,1578028458,83,-13.46,25.83,293.82,2.52
Kayes,100,ML,1578028458,15,14.44,-11.44,290.79,5.25
Mazamet,100,FR,1578028459,93,43.49,2.38,282.59,0.7
Huaquillas,75,EC,1578028459,31,-3.48,-80.24,305.15,1.5
Honningsvag,75,NO,1578028459,74,70.98,25.97,276.15,8.2
Deputatskiy,27,RU,1578027903,87,69.3,139.9,243.46,1.37
Mwinilunga,92,ZM,1578028459,96,-11.73,24.43,292.07,2.71
Vao,17,EE,1578028460,88,59.1,26.19,275.79,6.86
La Asuncion,96,AR,1578028460,92,-26.05,-65.39,289.38,0.57
Amahai,98,ID,1578027933,75,-3.31,129.0,301.77,5.24
Nyurba,97,RU,1578027870,99,63.29,118.35,251.71,1.27
Brigantine,90,US,1578027903,87,39.41,-74.36,283.71,3.1
Solnechnyy,4,RU,1578028461,90,50.72,136.64,255.33,1.04
Emerald,0,AU,1578028461,23,-23.53,148.16,310.15,5.1
Hirna,49,ET,1578028461,62,9.22,41.1,292.11,1.6
Oriximina,83,BR,1578028462,90,-1.77,-55.87,297.53,2.17
Wukari,6,NG,1578028462,19,7.87,9.78,289.22,4.68
Kieta,46,PG,1578027882,73,-6.22,155.63,302.42,3.09
Kyaikto,0,MM,1578028462,39,17.31,97.01,306.16,1.3
Tautira,40,PF,1578028462,74,-17.73,-149.15,301.15,3.6
Tilichiki,100,RU,1578027914,88,60.47,166.1,258.91,4.01
Usinsk,100,RU,1578028463,94,66.0,57.56,262.57,10.62
Inhambane,20,MZ,1578028414,88,-23.87,35.38,298.15,3.37
Tchollire,87,CM,1578028463,31,8.4,14.17,287.83,1.07
Nantucket,1,US,1578028463,87,41.28,-70.1,281.48,5.1
Shubarkuduk,94,KZ,1578028464,96,49.15,56.49,264.8,2.39
Mackay,40,CA,1578028464,53,53.65,-115.58,268.15,2.6
Vazhiny,100,RU,1578028464,89,60.96,34.04,275.89,7.06
Zaysan,0,KZ,1578028464,87,47.47,84.87,260.76,0.91
Upata,3,VE,1578028464,93,8.02,-62.41,292.24,1.76
Vallenar,1,CL,1578028465,88,-28.58,-70.76,285.84,0.67
Sturgeon Bay,90,US,1578028365,80,44.83,-87.38,275.15,1.5
Upernavik,100,GL,1578027908,83,72.79,-56.15,255.95,3.72
San Angelo,20,US,1578028465,53,31.46,-100.44,284.26,5.1
Yovon,90,TJ,1578028466,93,38.32,69.05,280.15,3.0
Tocopilla,35,CL,1578028466,65,-22.09,-70.2,283.83,0.84
Tessalit,0,ML,1578027894,39,20.2,1.01,281.65,6.26
Cacu,94,BR,1578028466,92,-18.56,-51.13,295.23,2.07
Ancud,0,CL,1578027896,87,-41.87,-73.83,286.15,2.1
Broken Hill,0,AU,1578028467,6,-31.97,141.45,315.15,5.7
Coihaique,54,CL,1578028459,77,-45.58,-72.07,289.15,2.1
Akureyri,40,IS,1578028251,48,65.68,-18.09,266.15,15.4
Mount Isa,15,AU,1578028468,15,-20.73,139.49,314.15,6.7
Gondanglegi,4,ID,1578028468,58,-7.75,112.01,304.82,2.37
Roblin,82,CA,1578028468,95,51.23,-101.35,261.02,2.88
Samarai,87,PG,1578028469,76,-10.62,150.67,301.36,2.1
Arlit,0,NE,1578027909,41,18.74,7.39,281.71,4.84
Aksaray,75,TR,1578028469,92,38.37,34.03,271.15,0.5
Tomatlan,0,MX,1578028469,62,19.93,-105.25,285.48,1.76
Khudat,97,AZ,1578028469,91,41.63,48.68,274.4,0.43
Monteagudo,70,BO,1578028470,78,-19.8,-63.96,291.0,1.07
Whyalla,1,AU,1578028470,6,-33.04,137.58,316.38,7.87
Edson,75,CA,1578028418,52,53.59,-116.44,266.15,1.71
Rio Grande,95,BR,1578028470,75,-32.03,-52.1,294.82,2.24
Kloulklubed,75,PW,1578027883,70,7.04,134.26,302.15,4.1
Omboue,100,GA,1578028471,92,-1.57,9.26,297.73,0.43
Kodiak,90,US,1578028471,86,39.95,-94.76,276.48,6.2
Abu Dhabi,0,AE,1578028472,77,24.47,54.37,294.15,1.0
Puerto Escondido,5,MX,1578028472,73,15.86,-97.07,298.15,1.64
Sabzevar,0,IR,1578028472,54,36.21,57.68,280.19,0.67
Agua Branca,100,BR,1578028472,97,-5.89,-42.63,295.75,1.17
Nishihara,20,JP,1578027906,37,35.74,139.53,285.93,1.5
Geraldton,90,CA,1578028473,85,49.72,-86.95,268.15,3.6
Vung Tau,100,VN,1578028473,47,10.35,107.08,304.57,5.45
Astana,90,KZ,1578028473,92,51.13,71.43,271.15,9.0
Berlevag,90,NO,1578027925,74,70.86,29.09,274.15,6.2
Beyneu,76,KZ,1578028466,94,45.32,55.19,273.13,4.11
Sabha,7,LY,1578028474,82,27.03,14.43,279.86,4.16
Gataivai,40,WS,1578028474,94,-13.77,-172.39,299.82,2.68
Ranfurly,89,CA,1578028474,94,53.41,-111.68,264.99,5.73
Pangkalanbuun,85,ID,1578027892,55,-2.68,111.62,305.98,2.16
Sam Roi Yot,20,TH,1578028474,58,12.21,99.86,304.15,4.6
Beira,75,ES,1578028475,87,43.2,-8.36,285.93,5.1
Klamath Falls,1,US,1578028475,80,42.22,-121.78,274.15,1.5
Carovigno,0,IT,1578028475,81,40.71,17.66,283.15,4.6
Mersin,75,TR,1578028475,93,36.81,34.63,282.15,2.1
Marawi,100,PH,1578027907,80,8.0,124.29,301.48,2.24
Borova,89,UA,1578028476,92,50.18,30.1,272.04,3.0
Karratha,98,AU,1578028476,69,-20.74,116.85,302.58,2.68
Bam,77,IR,1578028476,38,29.11,58.36,288.48,1.05
Altay,0,CN,1578028476,70,47.83,88.13,266.91,0.54
Amapa,71,HN,1578028477,88,15.09,-87.97,296.15,1.0
Muros,90,ES,1578028415,100,42.77,-9.06,287.59,2.6
Axim,65,GH,1578028477,62,4.87,-2.24,294.99,1.68
Villa Florida,0,PY,1578028477,69,-26.41,-57.13,295.45,2.7
Brewster,1,US,1578028477,87,41.76,-70.08,281.48,3.6
Fuyang,98,CN,1578027749,51,32.89,115.81,282.51,1.2
Selenduma,62,RU,1578028478,72,50.92,106.24,261.47,1.52
Avera,90,US,1578028478,62,33.19,-82.53,289.15,2.6
Yabassi,20,CM,1578028478,94,4.46,9.97,298.15,0.5
Alofi,12,NU,1578028479,65,-19.06,-169.92,300.15,4.1
Kaharlyk,72,UA,1578028479,100,49.87,30.82,272.04,2.0
Puerto Penasco,0,MX,1578028237,48,31.32,-113.53,285.93,0.45
Fairbanks,90,US,1578028388,76,64.84,-147.72,254.26,1.84
Zhezkazgan,90,KZ,1578028479,92,47.8,67.71,270.15,1.0
Bouna,0,CI,1578028480,18,9.27,-3.0,288.9,3.17
Petropavlovsk-Kamchatskiy,40,RU,1578028480,79,53.05,158.65,268.15,3.0
Northam,75,AU,1578028480,32,-31.65,116.67,294.82,7.2
Ostrovnoy,96,RU,1578028350,93,68.05,39.51,274.86,7.71
Manokwari,100,ID,1578028481,96,-0.87,134.08,296.51,4.09
Soyo,100,AO,1578028481,87,-6.13,12.37,299.24,1.22
Agadez,1,NE,1578028452,34,16.97,7.99,285.15,5.7
Casper,20,US,1578028298,67,42.87,-106.31,269.26,3.6
Ugoofaaru,62,MV,1578028482,79,5.67,73.0,301.03,6.1
Mazatlan,5,MX,1578028433,100,23.22,-106.42,290.93,2.1
Amberley,92,NZ,1578028482,87,-43.15,172.73,286.48,3.6
Sur,2,OM,1578027709,42,22.57,59.53,297.31,2.87
Beringovskiy,0,RU,1578027932,85,63.05,179.32,248.83,7.31
Cayenne,62,GF,1578027892,94,4.94,-52.33,296.15,2.24
Dodge City,1,US,1578028326,92,37.75,-100.02,273.71,2.6
Tokur,35,RU,1578028483,92,53.13,132.9,246.56,0.33
San Quintin,100,PH,1578028483,55,17.54,120.52,300.92,2.27
Aripuana,96,BR,1578027928,98,-9.17,-60.63,294.44,0.61
Atyrau,22,KZ,1578028484,92,47.1,51.92,262.15,2.0
Kishtwar,83,IN,1578028484,70,33.31,75.77,265.04,2.32
Saint Anthony,90,US,1578027838,78,43.97,-111.68,269.15,0.35
Aswan,0,EG,1578028426,57,24.09,32.9,283.15,7.2
Pundaguitan,100,PH,1578028485,87,6.37,126.17,297.95,2.29
Viking,71,CA,1578028485,80,53.1,-111.78,265.26,6.91
Lakes Entrance,1,AU,1578028485,74,-37.88,147.99,297.04,2.24
Asyut,0,EG,1578028408,70,27.18,31.19,279.15,4.1
Phatthalung,20,TH,1578028486,52,7.62,100.08,305.15,4.6
Nome,90,US,1578028457,93,30.04,-94.42,290.15,4.1
Walvis Bay,15,NA,1578027891,92,-22.95,14.51,289.26,0.89
Cap Malheureux,75,MU,1578027937,94,-19.98,57.61,299.15,3.03
Yabelo,28,ET,1578028487,56,4.89,38.09,295.28,8.37
Mazyr,66,BY,1578028487,84,52.05,29.27,271.14,3.08
Ratnagiri,0,IN,1578028487,44,16.98,73.3,300.9,2.52
Surt,39,LY,1578027925,71,31.21,16.59,284.88,4.24
Sibolga,74,ID,1578028488,56,1.74,98.78,304.46,1.31
Douentza,0,ML,1578028488,33,15.01,-2.95,281.84,2.27
Lazaro Cardenas,20,MX,1578028380,75,28.39,-105.62,278.15,7.2
Kahului,75,US,1578028343,78,20.89,-156.47,297.15,7.2
Eyl,46,SO,1578028488,75,7.98,49.82,299.11,9.22
Tabou,53,CI,1578028489,94,4.42,-7.36,296.07,0.64
Cabo San Lucas,5,MX,1578028489,77,22.89,-109.91,292.04,5.1
Moron,11,HT,1578028460,81,18.56,-74.26,297.95,1.56
Darab,86,IR,1578028489,49,28.75,54.55,286.95,0.47
Boguchany,100,RU,1578028490,89,58.38,97.46,271.53,4.87
Baykit,100,RU,1578028490,95,61.68,96.39,261.19,0.71
Kedrovyy,40,RU,1578028490,64,56.17,91.82,274.15,5.0
Tabory,0,PL,1578028490,81,53.89,19.53,272.04,3.13
Miri,0,NG,1578028491,37,10.31,9.75,281.13,1.72
San Jose,91,HN,1578028491,74,14.25,-87.96,288.63,0.2
Nelson Bay,0,AU,1578028491,38,-32.72,152.14,305.15,5.7
Muroto,40,JP,1578028491,47,33.37,134.14,287.15,3.6
Iqaluit,90,CA,1578028491,84,63.75,-68.52,260.15,1.0
Srednekolymsk,57,RU,1578028368,82,67.46,153.71,251.81,1.36
Yangambi,84,CD,1578028492,75,0.77,24.47,297.79,1.03
Vanimo,94,PG,1578028492,79,-2.67,141.3,301.87,7.97
Heanor,75,GB,1578028492,93,53.01,-1.36,283.15,4.6
Bubaque,64,GW,1578027914,51,11.28,-15.83,297.94,4.32
Taoudenni,74,ML,1578027898,36,22.68,-3.98,282.49,4.29
East Hampton,90,US,1578028493,65,41.58,-72.5,281.48,2.6
Tebingtinggi,75,ID,1578028493,83,3.33,99.16,301.15,5.7
Kamenka,50,MD,1578028494,81,48.03,28.7,271.48,2.19
Moyale,50,ET,1578028494,49,3.52,39.05,299.18,5.34
Toamasina,75,MG,1578028494,88,-18.17,49.38,299.15,1.0
Namibe,100,AO,1578027903,75,-15.19,12.15,296.35,1.98
Lagoa,75,PT,1578027921,82,37.14,-8.45,287.59,3.1
Mount Pleasant,90,US,1578028495,93,33.16,-94.97,288.15,2.1
Abu Samrah,100,SY,1578027921,81,35.3,37.18,282.39,2.36
Yumen,49,CN,1578028495,48,40.29,97.04,271.16,5.93
Nouadhibou,25,MR,1578028495,38,20.93,-17.03,289.15,7.7
Boa Vista,19,BR,1578028495,61,2.82,-60.67,299.15,3.1
Boo,4,NG,1578028496,18,7.44,8.9,290.38,6.16
Okhotsk,98,RU,1578028496,91,59.36,143.24,259.88,4.89
Salalah,75,OM,1578028388,54,17.01,54.1,299.15,0.5
Naze,21,NG,1578028496,88,5.43,7.07,292.15,4.43
Enshi,100,CN,1578028497,89,30.29,109.48,278.89,0.7
Barber,1,US,1578028497,81,39.71,-121.84,282.15,4.49
Nisporeni,76,MD,1578028497,75,47.07,28.18,274.26,1.0
Seymchan,69,RU,1578028497,83,62.93,152.39,257.57,2.74
Karlovac,17,HR,1578028497,92,45.49,15.55,270.93,0.21
Mahibadhoo,30,MV,1578028498,77,3.78,72.97,301.35,6.88
Bulgan,0,MN,1578027942,77,48.81,103.53,264.53,1.56
Bathsheba,75,BB,1578027913,78,13.22,-59.52,299.15,5.1
General Roca,0,AR,1578028498,39,-39.03,-67.58,301.15,5.7
Rome,86,IT,1578028011,86,41.89,12.48,280.37,1.5
The Valley,75,AI,1578028499,83,18.22,-63.06,299.26,2.6
Ternate,20,PH,1578028499,52,14.29,120.72,304.82,7.7
Chiredzi,53,ZW,1578028499,56,-21.05,31.67,302.04,2.87
Zlobin,7,HR,1578028499,59,45.29,14.65,279.82,1.0
Cururupu,88,BR,1578028499,98,-1.82,-44.87,296.15,0.48
Okakarara,100,NA,1578028500,72,-20.59,17.46,295.43,3.21
Richards Bay,73,ZA,1578028500,82,-28.77,32.06,299.08,7.0
Sikonge,75,TZ,1578028500,94,-5.63,32.75,293.15,1.97
Minbu,100,MM,1578028500,61,20.18,94.88,296.91,1.77
Aksarka,50,RU,1578028501,91,66.56,67.8,254.04,5.48
Nemuro,40,JP,1578028501,50,43.32,145.57,272.15,2.1
Port Macquarie,0,AU,1578028501,45,-31.43,152.91,304.82,8.2
Antalaha,68,MG,1578028501,80,-14.9,50.28,298.96,1.09
Havoysund,100,NO,1578028501,86,71.0,24.66,276.15,2.6
Shingu,20,JP,1578028360,54,33.72,135.99,285.15,6.2
Puerto Quijarro,33,BO,1578028502,63,-19.0,-57.72,297.91,1.03
Lamu,92,CN,1578028502,27,35.77,102.37,273.14,2.35
Bud,90,NO,1578028502,57,62.91,6.91,276.15,11.3
Piacabucu,100,BR,1578028503,86,-10.41,-36.43,298.59,3.62
Lumphat,100,KH,1578028503,37,13.5,106.97,305.63,3.72
Erenhot,0,CN,1578028503,68,43.65,111.97,266.8,3.45
Ishurdi,97,BD,1578028503,63,24.13,89.07,291.94,4.48
Jepara,81,ID,1578028503,66,-5.21,105.74,304.42,5.51
Lang Son,54,VN,1578028504,56,21.83,106.73,297.57,2.64
Bonthe,20,SL,1578028504,87,7.53,-12.5,295.68,2.33
Vila Franca do Campo,20,PT,1578028504,66,37.72,-25.43,286.15,2.6
Comodoro Rivadavia,20,AR,1578027690,41,-45.87,-67.48,299.15,5.1
Mafeteng,20,LS,1578028504,68,-29.82,27.24,291.15,3.6
Homer,1,US,1578028505,77,59.64,-151.54,263.71,2.6
Krasnosilka,59,UA,1578028505,76,50.15,27.08,271.6,3.72
San Andres,87,PH,1578028505,73,13.32,122.68,300.28,6.02
Hovd,75,NO,1578027920,86,63.83,10.7,278.15,7.7
Pacific Grove,1,US,1578028432,71,36.62,-121.92,285.37,3.1
Aksarayskiy,54,RU,1578028506,92,46.79,48.01,265.15,2.0
Lucapa,100,AO,1578028506,97,-8.42,20.74,292.64,0.88
Mao,20,DO,1578028506,100,19.55,-71.08,297.04,2.1
Touros,40,BR,1578028507,88,-5.2,-35.46,298.15,1.5
Praya,75,ID,1578028507,83,-8.71,116.27,301.15,3.1
Tsiroanomandidy,100,MG,1578028507,89,-18.77,46.05,294.78,1.28
Sola,82,TZ,1578028379,71,-3.17,33.8,294.63,6.03
Labuhan,67,ID,1578028508,66,-2.54,115.51,303.81,1.34
Blackwater,100,GB,1578028473,93,51.33,-0.78,284.15,6.2
Kangaatsiaq,100,GL,1578028508,79,68.31,-53.46,266.08,8.15
Bagli,40,IN,1578028508,87,22.64,76.35,289.15,1.0
Saint-Joseph,86,FR,1578028508,93,43.56,6.97,282.15,1.0
Sangar,11,RU,1578028509,92,63.92,127.47,236.61,1.91
Doha,7,QA,1578028509,88,25.29,51.53,296.15,3.6
Saldanha,100,PT,1578028509,95,41.42,-6.55,275.94,2.01
Hirara,40,JP,1578028509,60,24.8,125.28,295.15,4.1
Bonavista,0,CA,1578028510,81,48.65,-53.11,269.54,8.53
Yashkul,83,RU,1578028510,75,46.17,45.34,272.97,3.12
Znamenskoye,97,RU,1578028510,95,57.13,73.82,266.62,2.58
Mogadishu,75,SO,1578028510,74,2.04,45.34,300.15,5.1
Paravola,20,GR,1578028511,48,38.61,21.52,280.15,5.1
Stephenville,75,CA,1578028511,86,48.55,-58.59,272.15,9.3
Taunsa,14,PK,1578028511,28,30.7,70.65,289.5,0.44
Vestmannaeyjar,100,IS,1578028511,57,63.44,-20.27,275.45,20.2
Qaqortoq,100,GL,1578028377,49,60.72,-46.03,269.15,1.5
Beisfjord,40,NO,1578028512,97,68.38,17.6,276.15,10.3
Mogok,100,MM,1578028512,82,22.92,96.51,293.78,1.39
Belance,100,PH,1578028512,57,16.2,121.24,298.83,3.82
Gorontalo,100,ID,1578027669,81,0.54,123.06,301.25,3.27
Benavente,90,ES,1578028513,100,42.0,-5.67,271.15,0.5
Lyubashivka,97,UA,1578028513,90,47.84,30.26,271.57,2.9
Hereford,100,GB,1578028513,97,52.06,-2.72,283.15,3.55
Dingle,96,PH,1578028513,82,11.0,122.67,299.92,6.5
Brekstad,75,NO,1578028514,88,63.69,9.67,277.59,14.4
Havre-Saint-Pierre,1,CA,1578028514,78,50.23,-63.6,265.15,5.1
Port Blair,2,IN,1578028514,74,11.67,92.75,301.07,7.13
Lavrentiya,2,RU,1578028486,91,65.58,-170.99,247.82,5.49
Tommot,99,RU,1578028514,98,58.97,126.27,249.28,0.8
Valdosta,40,US,1578028515,77,30.83,-83.28,294.82,3.6
Polunochnoye,100,RU,1578028515,85,60.87,60.43,260.83,4.38
Klyuchevskiy,43,RU,1578028515,87,53.53,119.45,252.24,1.41
Fuling,100,CN,1578028516,62,29.71,107.39,283.24,0.85
Lhokseumawe,100,ID,1578028458,75,5.18,97.15,299.66,2.61
Shache,100,CN,1578028516,43,38.42,77.24,273.63,0.9
Najran,0,SA,1578027926,58,17.54,44.22,288.15,2.1
Tanout,0,NE,1578028516,36,14.97,8.88,280.56,7.57
Rapid Valley,1,US,1578028274,68,44.06,-103.15,276.48,5.1
Margate,75,AU,1578028517,56,-43.03,147.26,298.71,5.1
Broome,100,GB,1578028517,93,52.47,1.45,283.15,3.1
Mucurapo,20,TT,1578028517,83,10.67,-61.53,298.15,3.37
Jieshi,9,CN,1578028517,66,22.82,115.83,294.82,3.28
Kita,20,JP,1578028518,53,35.76,139.74,285.37,2.1
Champerico,5,MX,1578028518,64,16.38,-93.6,296.15,1.69
Tiznit,98,MA,1578028518,31,29.7,-9.73,282.89,2.46
Palana,80,RU,1578028518,65,59.08,159.95,270.46,13.43
Piracanjuba,89,BR,1578028518,97,-17.3,-49.02,293.19,1.98
Cockburn Town,8,TC,1578028514,77,21.46,-71.14,298.49,7.19
Masuguru,95,MZ,1578028519,78,-11.38,38.46,299.62,2.57
Makat,56,KZ,1578028519,77,47.65,53.35,270.35,2.8
Arrifes,20,PT,1578028519,66,37.77,-25.7,286.15,2.6
Hatillo,23,PR,1578028519,93,18.49,-66.83,297.59,1.34
Necochea,14,AR,1578028520,89,-38.55,-58.74,288.15,3.84
Kemin,81,KG,1578028520,73,42.79,75.7,268.12,0.96
Hofn,16,IS,1578028520,62,64.25,-15.21,272.29,10.32
Palmer,23,AU,1578028520,4,-34.85,139.16,314.26,7.7
Fraserburgh,54,GB,1578028520,69,57.69,-2.02,279.82,4.6
Sorland,90,NO,1578028521,68,67.67,12.69,274.15,2.6
Semporna,75,MY,1578028521,79,4.48,118.61,302.15,2.1
Bara,19,NG,1578028521,33,10.41,10.6,282.66,2.84
Igarka,100,RU,1578028521,96,67.47,86.57,252.32,5.05
Sitka,93,US,1578028522,87,37.17,-99.65,273.71,4.1
Sinnamary,54,GF,1578028522,75,5.38,-52.96,299.25,6.23
Sarankhola,33,BD,1578028522,53,22.31,89.79,297.14,5.26
Panalingaan,50,PH,1578028522,76,8.78,117.42,301.08,6.58
La Ronge,90,CA,1578028523,86,55.1,-105.3,271.15,2.6
Shimoda,20,JP,1578028523,54,34.7,138.93,286.15,1.5
Benxi,75,CN,1578028523,45,41.29,123.76,270.15,1.0
Horsham,45,AU,1578028523,6,-36.71,142.2,311.82,4.25
San Cristobal,20,HN,1578028523,91,14.68,-86.92,288.26,1.29
Tres Arroyos,7,AR,1578028524,78,-38.38,-60.28,289.62,4.66
Shakiso,8,ET,1578028524,74,5.77,38.9,292.72,1.39
Tura,0,RU,1578028524,96,64.27,100.22,250.39,2.06
Buala,73,SB,1578028508,72,-8.15,159.59,302.15,2.21
Barra do Garcas,100,BR,1578028524,96,-15.89,-52.26,295.0,2.59
Clyde,11,NZ,1578028525,42,-45.19,169.32,286.12,6.91
Rundu,100,NA,1578028525,82,-17.91,19.77,294.98,0.32
Drayton Valley,40,CA,1578028525,80,53.22,-114.98,261.32,2.86
